City_ID,City,Lat,Lng,Max Temp,Humidity,Cloudiness,Wind Speed,Country,Date
0,lycksele,64.5954,18.6735,21.07,93,75,3.44,SE,2024-04-05 19:23:58
1,as sulayyil,20.4607,45.5779,77.25,40,76,8.79,SA,2024-04-05 19:23:58
2,hotan,37.0997,79.9269,55.99,22,53,3.29,CN,2024-04-05 19:23:58
3,punta arenas,-53.15,-70.9167,59.02,58,75,33.38,CL,2024-04-05 19:21:22
4,grytviken,-54.2811,-36.5092,37.02,87,100,7.81,GS,2024-04-05 19:23:59
5,antalaha,-14.9003,50.2788,77.41,88,24,6.35,MG,2024-04-05 19:23:59
6,longyearbyen,78.2186,15.6401,-5.96,65,20,0.0,SJ,2024-04-05 19:23:59
7,stanley,54.868,-1.6985,54.99,76,20,18.41,GB,2024-04-05 19:23:59
8,bethel,41.3712,-73.414,48.07,54,100,12.66,US,2024-04-05 19:23:59
9,varva,50.495,32.7197,48.34,46,100,6.38,UA,2024-04-05 19:23:59
10,bilibino,68.0546,166.4372,-11.67,97,37,3.62,RU,2024-04-05 19:24:00
11,pithoro,25.5167,69.3833,82.58,30,100,12.84,PK,2024-04-05 19:24:00
12,cobija,-11.0267,-68.7692,95.18,59,40,3.44,BO,2024-04-05 19:20:08
13,udachny,66.4167,112.4,-6.56,89,100,17.87,RU,2024-04-05 19:24:00
14,callao,-12.0667,-77.15,77.29,69,0,14.97,PE,2024-04-05 19:19:57
15,constitucion,-35.3333,-72.4167,65.35,62,10,14.12,CL,2024-04-05 19:21:35
16,blackmans bay,-43.0167,147.3167,50.52,94,2,1.01,AU,2024-04-05 19:24:00
17,port-aux-francais,-49.35,70.2167,43.56,93,49,25.55,TF,2024-04-05 19:24:01
18,puerto baquerizo moreno,-0.9,-89.6,86.99,62,40,9.22,EC,2024-04-05 19:20:09
19,vilyuchinsk,52.9306,158.4028,25.07,80,82,10.22,RU,2024-04-05 19:24:01
20,waitangi,-43.9535,-176.5597,50.83,81,100,1.01,NZ,2024-04-05 19:24:01
21,sogndal,61.2283,7.1003,37.78,55,0,3.44,NO,2024-04-05 19:24:01
22,lorengau,-2.0226,147.2712,81.32,79,67,3.0,PG,2024-04-05 19:24:01
23,anadyr,64.75,177.4833,-5.3,84,0,8.95,RU,2024-04-05 19:24:01
24,iqaluit,63.7506,-68.5145,17.33,92,100,3.44,CA,2024-04-05 19:19:10
25,lihue,21.9789,-159.3672,74.79,74,75,21.85,US,2024-04-05 19:24:02
26,khorixas,-20.3667,14.9667,83.21,45,75,2.66,NA,2024-04-05 19:24:02
27,howard springs,-12.497,131.047,78.71,90,100,5.39,AU,2024-04-05 19:24:02
28,solleftea,63.1667,17.2667,28.26,98,94,2.1,SE,2024-04-05 19:24:02
29,hadibu,12.65,54.0333,80.29,71,2,6.51,YE,2024-04-05 19:24:02
30,whitehorse,60.7161,-135.0538,34.02,80,100,16.11,CA,2024-04-05 19:24:02
31,margaret river,-33.95,115.0667,60.82,48,84,9.37,AU,2024-04-05 19:24:03
32,aasiaat,68.7098,-52.8699,20.19,91,56,9.01,GL,2024-04-05 19:24:03
33,adamstown,-25.066,-130.1015,71.47,63,100,6.6,PN,2024-04-05 19:24:03
34,barra de santo antonio,-9.4047,-35.5072,87.08,72,100,7.29,BR,2024-04-05 19:24:03
35,nova sintra,14.8667,-24.7167,73.42,78,0,23.73,CV,2024-04-05 19:24:03
36,okha,53.5739,142.9478,25.25,89,14,4.0,RU,2024-04-05 19:24:03
37,la'ie,21.6477,-157.9253,80.56,75,7,11.99,US,2024-04-05 19:24:03
38,remire-montjoly,4.9167,-52.2667,87.84,70,75,16.11,GF,2024-04-05 19:24:03
39,thompson,55.7435,-97.8558,50.16,23,75,9.22,CA,2024-04-05 19:24:04
40,basco,20.4487,121.9702,80.8,76,0,15.28,PH,2024-04-05 19:24:04
41,wailua homesteads,22.0669,-159.378,74.19,75,75,21.85,US,2024-04-05 19:24:04
42,papatowai,-46.5619,169.4708,50.83,86,46,10.38,NZ,2024-04-05 19:24:04
43,port lincoln,-34.7333,135.8667,56.14,82,1,6.55,AU,2024-04-05 19:24:04
44,thurso,58.5927,-3.5259,41.25,91,100,19.8,GB,2024-04-05 19:24:04
45,olonkinbyen,70.9221,-8.7187,19.92,63,100,16.67,SJ,2024-04-05 19:24:04
46,kourou,5.1552,-52.6478,87.85,64,98,8.57,GF,2024-04-05 19:24:05
47,ta`u,-14.2336,-169.5144,83.89,75,89,7.76,AS,2024-04-05 19:24:05
48,nadi,-17.8,177.4167,71.6,88,20,0.0,FJ,2024-04-05 19:24:05
49,vorgashor,67.5833,63.95,-1.75,90,100,18.32,RU,2024-04-05 19:24:05
50,college,64.8569,-147.8028,35.47,84,75,0.0,US,2024-04-05 19:24:05
51,puerto ayora,-0.7393,-90.3518,84.16,90,100,7.0,EC,2024-04-05 19:24:05
52,sultanah,24.4926,39.5857,88.25,11,0,9.22,SA,2024-04-05 19:24:05
53,baiao,-2.7906,-49.6717,86.11,76,100,5.37,BR,2024-04-05 19:24:05
54,barra do corda,-5.5,-45.25,82.53,89,96,2.13,BR,2024-04-05 19:21:01
55,kabalo,-6.05,26.9167,74.25,90,34,2.01,CD,2024-04-05 19:24:06
56,raduzhny,62.0961,77.475,38.05,100,100,10.07,RU,2024-04-05 19:24:06
57,sao felix do xingu,-6.6447,-51.995,83.48,85,100,1.12,BR,2024-04-05 19:24:06
58,guerrero negro,27.9769,-114.0611,62.64,60,100,19.86,MX,2024-04-05 19:24:06
59,talnakh,69.4865,88.3972,9.21,84,100,16.02,RU,2024-04-05 19:24:06
60,jetiba,-20.05,-40.6667,73.89,80,82,6.04,BR,2024-04-05 19:24:06
61,georgetown,5.4112,100.3354,85.95,75,20,2.3,MY,2024-04-05 19:20:24
62,wad az zaki,14.4619,32.2065,92.01,11,6,11.99,SD,2024-04-05 19:24:07
63,okhotsk,59.3833,143.3,12.61,98,77,5.68,RU,2024-04-05 19:24:07
64,lebu,-37.6167,-73.65,60.03,72,0,12.88,CL,2024-04-05 19:24:07
65,puerto natales,-51.7236,-72.4875,59.45,44,75,21.85,CL,2024-04-05 19:24:07
66,klyuchi,52.2667,79.1667,49.57,68,100,6.46,RU,2024-04-05 19:24:08
67,ilulissat,69.2167,-51.1,28.42,69,75,5.75,GL,2024-04-05 19:24:08
68,yellowknife,62.456,-114.3525,31.41,72,40,19.57,CA,2024-04-05 19:21:17
69,cockburn town,21.4612,-71.1419,80.56,78,20,3.44,TC,2024-04-05 19:24:08
70,tura,25.5198,90.2201,74.48,87,20,7.34,IN,2024-04-05 19:24:08
71,san lawrenz,36.0553,14.204,58.41,68,0,5.48,MT,2024-04-05 19:24:08
72,isafjordur,66.0755,-23.124,25.65,69,83,8.99,IS,2024-04-05 19:24:09
73,ndele,8.4109,20.6473,74.44,85,100,7.85,CF,2024-04-05 19:24:09
74,jamestown,42.097,-79.2353,36.55,79,100,12.66,US,2024-04-05 19:19:16
75,golpayegan,33.4537,50.2884,59.9,36,0,5.53,IR,2024-04-05 19:24:09
76,ivdel',60.6911,60.4206,23.18,72,100,11.99,RU,2024-04-05 19:24:09
77,coahuayana de hidalgo,18.7,-103.6583,87.28,31,9,8.01,MX,2024-04-05 19:24:10
78,kailua-kona,19.6406,-155.9956,79.29,80,75,6.91,US,2024-04-05 19:24:10
79,ribeira grande,38.5167,-28.7,61.2,55,40,25.32,PT,2024-04-05 19:24:10
80,ushuaia,-54.8,-68.3,56.86,47,20,10.36,AR,2024-04-05 19:24:10
81,al basrah al qadimah,30.4972,47.8149,76.91,38,0,10.36,IQ,2024-04-05 19:24:11
82,avarua,-21.2078,-159.775,78.85,89,100,6.91,CK,2024-04-05 19:24:11
83,hawaiian paradise park,19.5933,-154.9731,73.04,85,20,8.05,US,2024-04-05 19:24:11
84,ust'-ilimsk,58.0006,102.6619,18.45,98,99,1.99,RU,2024-04-05 19:24:11
85,markaz-e hukumat-e darweshan,31.1323,64.1934,72.59,17,0,4.29,AF,2024-04-05 19:24:11
86,petukhovo,55.0692,67.9019,40.96,92,8,7.25,RU,2024-04-05 19:24:11
87,tera,14.0078,0.7531,98.92,10,5,7.09,NE,2024-04-05 19:24:12
88,kapuskasing,49.4169,-82.4331,46.49,42,75,13.8,CA,2024-04-05 19:20:02
89,santander,43.4647,-3.8044,79.92,19,0,11.5,ES,2024-04-05 19:20:51
90,abepura,-2.6333,140.5833,74.21,100,40,1.14,ID,2024-04-05 19:24:12
91,al burayqah,30.4062,19.5739,65.28,70,0,18.75,LY,2024-04-05 19:20:25
92,sitka,57.0531,-135.33,42.69,75,100,13.8,US,2024-04-05 19:24:12
93,east london,-33.0153,27.9116,64.56,77,100,8.97,ZA,2024-04-05 19:24:12
94,edinburgh of the seven seas,-37.0676,-12.3116,65.93,86,100,23.15,SH,2024-04-05 19:24:13
95,alta,69.9689,23.2717,16.86,58,0,28.99,NO,2024-04-05 19:24:13
96,kidal,18.4411,1.4078,90.07,5,93,10.38,ML,2024-04-05 19:24:13
97,petropavlovsk-kamchatsky,53.0452,158.6483,23.59,68,40,2.24,RU,2024-04-05 19:24:13
98,hammerfest,70.6634,23.6821,19.85,73,0,3.44,NO,2024-04-05 19:24:13
99,gunjur,13.2019,-16.7339,73.47,73,0,11.5,GM,2024-04-05 19:24:13
100,ambon,-3.6954,128.1814,81.88,95,40,1.14,ID,2024-04-05 19:19:14
101,ratnagiri,16.9833,73.3,79.61,79,0,10.33,IN,2024-04-05 19:24:14
102,constantia,44.1833,28.65,52.7,65,100,8.46,RO,2024-04-05 19:21:56
103,olonets,60.9847,32.9698,27.54,80,100,11.59,RU,2024-04-05 19:24:14
104,qaqortoq,60.7167,-46.0333,35.22,61,1,5.35,GL,2024-04-05 19:24:14
105,colonia,50.9333,6.95,63.59,72,0,8.05,DE,2024-04-05 19:22:27
106,port mathurin,-19.6833,63.4167,80.24,80,100,17.02,MU,2024-04-05 19:24:14
107,santana,-0.0583,-51.1817,86.18,79,100,8.05,BR,2024-04-05 19:22:08
108,west island,-12.1568,96.8225,80.58,83,40,10.36,CC,2024-04-05 19:24:15
109,sinabang,2.4803,96.3801,80.02,86,95,4.29,ID,2024-04-05 19:24:15
110,alice springs,-23.7,133.8833,58.21,50,0,1.99,AU,2024-04-05 19:24:15
111,portland,45.5234,-122.6762,51.96,71,75,8.99,US,2024-04-05 19:20:32
112,xylofagou,34.9772,33.8492,66.49,88,2,3.22,CY,2024-04-05 19:24:15
113,chonchi,-42.6128,-73.8092,59.13,71,97,1.07,CL,2024-04-05 19:24:15
114,susa,35.8254,10.637,65.98,68,0,9.22,TN,2024-04-05 19:24:15
115,st. john's,47.5649,-52.7093,33.67,94,100,12.66,CA,2024-04-05 19:20:02
116,shamkhal,43.0596,47.3373,60.8,41,100,1.99,RU,2024-04-05 19:24:16
117,gebeit,21.0667,36.3167,75.15,50,100,10.54,SD,2024-04-05 19:24:16
118,prado,-17.3411,-39.2208,82.63,66,0,10.16,BR,2024-04-05 19:24:16
119,tanumah,27.1,44.1333,78.44,13,0,7.14,SA,2024-04-05 19:24:16
120,bredasdorp,-34.5322,20.0403,60.42,68,100,14.7,ZA,2024-04-05 19:24:16
121,happy valley-goose bay,53.3168,-60.3315,35.91,69,75,14.97,CA,2024-04-05 19:23:09
122,greymouth,-42.4667,171.2,45.55,94,24,5.61,NZ,2024-04-05 19:24:17
123,sour el ghozlane,36.1477,3.6912,63.93,28,21,7.78,DZ,2024-04-05 19:24:17
124,gadzhiyevo,69.2551,33.3362,12.2,91,44,11.21,RU,2024-04-05 19:24:18
125,invercargill,-46.4,168.35,52.02,91,100,10.0,NZ,2024-04-05 19:24:18
126,hamilton,39.1834,-84.5333,47.75,70,100,10.36,US,2024-04-05 19:19:59
127,nizhnesortymskiy,62.4397,71.7603,23.31,95,100,19.3,RU,2024-04-05 19:24:18
128,the pas,53.8251,-101.2541,51.82,32,100,18.41,CA,2024-04-05 19:24:19
129,smithers,54.7804,-127.1743,43.12,39,40,6.91,CA,2024-04-05 19:24:19
130,arzamas,55.3949,43.8399,32.05,68,99,8.55,RU,2024-04-05 19:24:19
131,pisco,-13.7,-76.2167,80.65,61,0,20.71,PE,2024-04-05 19:24:19
132,liwale,-9.7667,37.9333,68.99,98,100,3.76,TZ,2024-04-05 19:24:19
133,noshiro,40.2039,140.0242,38.17,65,6,5.39,JP,2024-04-05 19:23:56
134,luderitz,-26.6481,15.1594,62.04,70,100,19.98,NA,2024-04-05 19:24:19
135,tommot,58.9564,126.2925,4.73,98,100,1.68,RU,2024-04-05 19:24:20
136,mahina,-17.5065,-149.489,85.77,74,75,2.3,PF,2024-04-05 19:23:42
137,hasaki,35.7333,140.8333,50.29,80,100,14.83,JP,2024-04-05 19:24:20
138,astrakhan,46.3497,48.0408,53.47,71,100,6.71,RU,2024-04-05 19:24:20
139,enewetak,11.3474,162.3373,80.47,76,75,19.98,MH,2024-04-05 19:24:20
140,chegdomyn,51.1167,133.0167,32.86,74,100,7.25,RU,2024-04-05 19:24:20
141,virginia beach,36.8529,-75.978,62.04,38,75,8.05,US,2024-04-05 19:21:15
142,hermanus,-34.4187,19.2345,61.81,66,100,17.38,ZA,2024-04-05 19:24:21
143,cabedelo,-6.9811,-34.8339,88.47,76,14,11.95,BR,2024-04-05 19:22:20
144,hobyo,5.3505,48.5268,84.67,68,94,15.52,SO,2024-04-05 19:24:21
145,badger,64.8,-147.5333,35.38,87,100,0.0,US,2024-04-05 19:24:21
146,fort bragg,35.139,-79.006,64.24,33,20,16.11,US,2024-04-05 19:24:21
147,jinka,5.65,36.65,65.66,88,100,1.72,ET,2024-04-05 19:24:21
148,margate,51.3813,1.3862,57.87,73,100,4.0,GB,2024-04-05 19:23:35
149,polyarnyy,69.1989,33.4478,13.32,89,22,11.1,RU,2024-04-05 19:24:22
150,yambio,4.5721,28.3955,74.55,77,93,3.22,SS,2024-04-05 19:24:22
151,machico,32.7,-16.7667,71.01,91,75,11.5,PT,2024-04-05 19:24:22
152,susuman,62.7833,148.1667,-12.01,100,94,1.01,RU,2024-04-05 19:24:22
153,amga,60.8953,131.9608,12.42,94,100,6.96,RU,2024-04-05 19:24:22
154,newman,37.3138,-121.0208,50.05,81,100,5.99,US,2024-04-05 19:24:22
155,bangar,16.8936,120.4243,79.57,70,69,4.07,PH,2024-04-05 19:24:23
156,greenville,35.6127,-77.3663,62.13,38,40,14.97,US,2024-04-05 19:19:39
157,bubaque,11.2833,-15.8333,75.97,84,66,9.71,GW,2024-04-05 19:24:23
158,talcahuano,-36.7167,-73.1167,64.08,68,0,14.97,CL,2024-04-05 19:20:15
159,dexter,36.7959,-89.9579,60.85,44,6,5.53,US,2024-04-05 19:23:56
160,swakopmund,-22.6833,14.5333,60.98,85,36,5.99,NA,2024-04-05 19:24:23
161,lubin,51.4009,16.2015,63.75,69,100,14.05,PL,2024-04-05 19:24:23
162,usogorsk,63.4106,48.6872,6.67,94,18,5.08,RU,2024-04-05 19:24:23
163,mundri,-6.9558,111.71,76.6,94,100,3.22,ID,2024-04-05 19:24:24
164,geraldton,-28.7667,114.6,63.01,88,55,5.75,AU,2024-04-05 19:24:24
165,jiuquan,39.7432,98.5174,47.43,51,8,4.03,CN,2024-04-05 19:24:24
166,ma'ili,21.4219,-158.1803,80.62,55,75,10.36,US,2024-04-05 19:24:24
167,qarauyl,48.9451,79.255,41.32,66,73,5.75,KZ,2024-04-05 19:24:24
168,utrik,11.2278,169.8474,80.13,77,100,19.39,MH,2024-04-05 19:21:17
169,mogocha,53.7333,119.7667,10.53,90,14,3.83,RU,2024-04-05 19:24:25
170,dampit,-8.2116,112.7493,71.38,95,100,1.14,ID,2024-04-05 19:24:25
171,nuuk,64.1835,-51.7216,30.81,69,0,13.8,GL,2024-04-05 19:20:15
172,oyama,36.3,139.8,55.58,75,100,3.31,JP,2024-04-05 19:24:25
173,north bend,43.4065,-124.2243,52.27,66,20,0.0,US,2024-04-05 19:24:25
174,yuxia,34.0615,108.6291,48.81,81,100,3.2,CN,2024-04-05 19:24:26
175,selfoss,63.9331,-20.9971,34.05,49,100,8.03,IS,2024-04-05 19:24:26
176,carnarvon,-24.8667,113.6333,76.05,63,0,15.26,AU,2024-04-05 19:24:26
177,mar del plata,-38.0023,-57.5575,68.95,66,0,20.0,AR,2024-04-05 19:23:53
178,malakal,9.5334,31.6605,90.66,41,81,4.7,SS,2024-04-05 19:24:26
179,tsiombe,-25.3,45.4833,73.51,89,0,3.24,MG,2024-04-05 19:24:26
180,ust-nera,64.5667,143.2,-5.76,97,47,3.2,RU,2024-04-05 19:24:27
181,al hazm,16.1641,44.7769,80.96,44,27,3.04,YE,2024-04-05 19:24:27
182,madalena,41.2162,-8.3345,75.31,46,98,9.93,PT,2024-04-05 19:24:27
183,tiksi,71.6872,128.8694,-19.46,100,100,3.94,RU,2024-04-05 19:24:27
184,hilo,19.7297,-155.09,73.26,81,20,8.05,US,2024-04-05 19:24:27
185,arkhangel'sk,64.5401,40.5433,7.12,92,0,0.0,RU,2024-04-05 19:24:27
186,collie,-33.3667,116.15,59.99,48,100,4.03,AU,2024-04-05 19:24:28
187,le port,-20.9373,55.2919,78.8,84,0,4.27,RE,2024-04-05 19:24:28
188,weyburn,49.6668,-103.8511,55.62,33,100,36.82,CA,2024-04-05 19:23:03
189,tabou,4.423,-7.3528,82.24,78,43,9.1,CI,2024-04-05 19:24:28
190,dudinka,69.4058,86.1778,9.68,93,100,21.99,RU,2024-04-05 19:24:28
191,kodiak,57.79,-152.4072,38.71,60,0,17.27,US,2024-04-05 19:24:28
192,kekri,25.9667,75.15,81.55,21,98,7.56,IN,2024-04-05 19:24:28
193,nemuro,43.3236,145.575,35.01,83,100,10.2,JP,2024-04-05 19:24:28
194,carnot,4.9409,15.8665,73.33,88,100,3.62,CF,2024-04-05 19:24:29
195,aleksandrovsk,59.158,57.5624,19.8,74,99,10.98,RU,2024-04-05 19:24:29
196,ulety,51.3572,112.4849,31.03,69,100,12.26,RU,2024-04-05 19:24:29
197,hithadhoo,-0.6,73.0833,79.54,88,100,9.31,MV,2024-04-05 19:21:21
198,shinyanga,-3.6667,33.4333,68.58,90,85,4.41,TZ,2024-04-05 19:24:29
199,tukrah,32.5341,20.5791,61.2,82,0,10.69,LY,2024-04-05 19:24:29
200,port elizabeth,-33.918,25.5701,63.32,72,100,5.01,ZA,2024-04-05 19:24:29
201,nova vicosa,-17.8919,-39.3719,82.2,65,0,8.14,BR,2024-04-05 19:20:32
202,coxen hole,16.3244,-86.5366,85.28,70,20,8.05,HN,2024-04-05 19:24:30
203,flying fish cove,-10.4217,105.6791,76.68,100,100,0.0,CX,2024-04-05 19:24:30
204,albany,42.6001,-73.9662,43.95,66,100,10.0,US,2024-04-05 19:21:38
205,ejea de los caballeros,42.1263,-1.1372,64.62,49,100,17.92,ES,2024-04-05 19:24:30
206,ilhabela,-23.7781,-45.3581,79.18,76,16,4.12,BR,2024-04-05 19:24:30
207,ofunato,39.0717,141.7167,42.62,86,10,2.06,JP,2024-04-05 19:24:30
208,pankrushikha,53.8319,80.3406,46.89,80,100,3.65,RU,2024-04-05 19:24:30
209,palikir - national government center,6.9248,158.1611,81.36,77,30,18.92,FM,2024-04-05 19:24:30
210,porto novo,6.4965,2.6036,83.1,78,100,9.86,BJ,2024-04-05 19:24:31
211,sodankyla,67.4167,26.6,15.85,93,100,4.29,FI,2024-04-05 19:24:31
212,carrizo springs,28.5219,-99.8606,89.55,13,0,16.11,US,2024-04-05 19:21:21
213,mount pearl,47.5166,-52.7813,32.85,92,100,12.66,CA,2024-04-05 19:23:37
214,parauapebas,-6.0675,-49.9022,85.98,74,40,0.0,BR,2024-04-05 19:24:31
215,beyneu,45.3167,55.2,57.6,55,100,9.84,KZ,2024-04-05 19:24:31
216,lumut,4.2323,100.6298,84.22,84,40,0.0,MY,2024-04-05 19:24:31
217,keelung,25.1283,121.7419,67.95,92,100,3.4,TW,2024-04-05 19:22:06
218,aykhal,66.0,111.5,-8.59,96,100,17.83,RU,2024-04-05 19:24:32
219,huacho,-11.1067,-77.605,77.45,74,97,11.9,PE,2024-04-05 19:24:32
220,egilsstadir,65.2653,-14.3948,24.71,93,100,10.36,IS,2024-04-05 19:24:32
221,tempoal de sanchez,21.5167,-98.3833,89.44,34,0,8.5,MX,2024-04-05 19:24:32
222,tanjung pinang,0.9167,104.45,80.64,77,79,6.73,ID,2024-04-05 19:24:32
223,laguna,38.421,-121.4238,51.89,80,100,5.75,US,2024-04-05 19:24:32
224,holualoa,19.6228,-155.9522,75.56,82,75,6.91,US,2024-04-05 19:22:09
225,bridgewater,44.3835,-64.5155,43.11,80,93,17.27,CA,2024-04-05 19:24:32
226,sirte,31.2089,16.5887,63.99,76,21,11.65,LY,2024-04-05 19:24:33
227,urangan,-25.3,152.9,73.2,97,99,5.99,AU,2024-04-05 19:24:33
228,letlhakeng,-24.0944,25.0298,73.35,58,100,2.08,BW,2024-04-05 19:24:33
229,sorong,-0.8833,131.25,80.89,85,43,9.31,ID,2024-04-05 19:24:33
230,uturoa,-16.7333,-151.4333,84.13,75,100,9.44,PF,2024-04-05 19:24:33
231,ibeto,10.4854,5.145,88.77,44,88,7.0,NG,2024-04-05 19:24:33
232,steamboat springs,40.485,-106.8317,62.19,22,0,11.5,US,2024-04-05 19:18:50
233,qamdo,31.1667,97.2333,38.32,46,100,5.66,CN,2024-04-05 19:24:34
234,afaahiti,-17.75,-149.2833,84.07,84,85,10.49,PF,2024-04-05 19:24:34
235,altai,46.3722,96.2583,30.29,44,33,4.18,MN,2024-04-05 19:21:19
236,petauke,-14.2426,31.3253,69.6,87,13,4.5,ZM,2024-04-05 19:24:34
237,dawei,14.0833,98.2,76.71,92,38,2.33,MM,2024-04-05 19:24:34
238,brokopondo,4.75,-55.1667,91.13,50,98,15.19,SR,2024-04-05 19:24:34
239,papao,-17.75,-149.55,85.68,78,100,9.1,PF,2024-04-05 19:24:34
240,cabo san lucas,22.8909,-109.9124,82.71,50,75,9.22,MX,2024-04-05 19:19:37
241,san luis de la loma,17.2706,-100.8939,85.17,46,1,8.86,MX,2024-04-05 19:24:35
242,tazovsky,67.4667,78.7,31.46,98,100,22.01,RU,2024-04-05 19:24:35
243,belmonte,-15.8631,-38.8828,82.42,74,18,9.35,BR,2024-04-05 19:24:35
244,grantsville,40.5999,-112.4644,57.87,62,100,29.93,US,2024-04-05 19:24:35
245,glace bay,46.1969,-59.957,36.27,97,100,19.57,CA,2024-04-05 19:21:51
246,bilari,28.6333,78.8,77.59,12,100,8.52,IN,2024-04-05 19:24:35
247,san jose del guaviare,2.5729,-72.6459,94.75,43,97,3.98,CO,2024-04-05 19:24:35
248,vadso,70.0744,29.7487,24.96,50,0,17.27,NO,2024-04-05 19:24:35
249,bakanas,44.8081,76.2772,59.95,31,100,2.04,KZ,2024-04-05 19:24:36
250,crieff,56.3727,-3.8389,42.37,100,100,2.53,GB,2024-04-05 19:24:36
251,soio,-6.1349,12.3689,81.46,88,45,6.62,AO,2024-04-05 19:24:36
252,sretensk,52.2453,117.7093,29.19,54,100,4.94,RU,2024-04-05 19:24:36
253,sidney,-33.8679,151.2073,67.33,92,75,8.05,AU,2024-04-05 19:20:30
254,codrington,-38.2667,141.9667,53.38,94,100,4.32,AU,2024-04-05 19:24:36
255,gornyye klyuchi,45.25,133.5,35.8,65,0,7.18,RU,2024-04-05 19:24:36
256,bikenibeu village,1.3673,173.1241,82.36,89,40,9.22,KI,2024-04-05 19:24:37
257,new norfolk,-42.7826,147.0587,51.71,99,38,2.26,AU,2024-04-05 19:24:37
258,praia da vitoria,38.7333,-27.0667,57.45,77,40,26.55,PT,2024-04-05 19:24:17
259,revelstoke,50.9832,-118.2023,53.62,40,20,11.5,CA,2024-04-05 19:20:10
260,issia,6.4922,-6.5856,81.07,72,72,3.58,CI,2024-04-05 19:24:37
261,khandyga,62.6667,135.6,13.24,91,100,3.8,RU,2024-04-05 19:24:37
262,bamboo flat,11.7,92.7167,78.89,94,43,2.3,IN,2024-04-05 19:24:37
263,cherry hill,39.9348,-75.0307,52.36,51,75,17.27,US,2024-04-05 19:21:41
264,ulladulla,-35.35,150.4667,63.77,93,100,22.44,AU,2024-04-05 19:24:38
265,sake,-1.5736,29.045,64.02,95,99,1.45,CD,2024-04-05 19:24:38
266,miyakonojo,31.7333,131.0667,59.14,100,100,3.65,JP,2024-04-05 19:24:38
267,garachico,28.7781,-17.7646,68.11,73,20,4.61,ES,2024-04-05 19:24:38
268,san antonio de pale,-1.4014,5.6325,83.84,77,99,6.22,GQ,2024-04-05 19:24:38
269,dunay,42.8803,132.3375,36.77,87,0,12.44,RU,2024-04-05 19:24:38
270,teknaf,20.8624,92.3058,77.09,91,7,2.73,BD,2024-04-05 19:24:39
271,kavaratti,10.5669,72.642,84.09,70,100,11.41,IN,2024-04-05 19:24:39
272,mazagao,-0.115,-51.2894,86.05,88,100,6.04,BR,2024-04-05 19:24:39
273,touros,-5.1989,-35.4608,85.12,70,8,9.86,BR,2024-04-05 19:22:43
274,fort mcmurray,56.7268,-111.381,31.59,93,100,1.14,CA,2024-04-05 19:24:39
275,rosario oeste,-14.8361,-56.4275,91.17,57,50,1.74,BR,2024-04-05 19:24:39
276,manaus,-3.1019,-60.025,79.3,88,75,5.75,BR,2024-04-05 19:21:07
277,gemena,3.25,19.7667,72.88,97,100,1.57,CD,2024-04-05 19:24:40
278,vilyuysk,63.7553,121.6247,-4.9,99,100,3.53,RU,2024-04-05 19:24:40
279,alofi,-19.0595,-169.9187,80.49,83,100,6.91,NU,2024-04-05 19:24:40
280,muynoq,43.7683,59.0214,55.65,56,0,5.08,UZ,2024-04-05 19:24:40
281,dalmau,26.0667,81.0333,83.82,14,62,5.91,IN,2024-04-05 19:24:40
282,oleksandriya,48.6696,33.1159,47.73,48,100,5.57,UA,2024-04-05 19:24:40
283,santa marta de ortigueira,43.6833,-7.85,66.7,50,100,8.21,ES,2024-04-05 19:24:40
284,sur,22.5667,59.5289,80.74,57,0,7.4,OM,2024-04-05 19:24:40
285,markova,48.6758,24.4138,49.23,72,100,6.15,UA,2024-04-05 19:24:41
286,irbit,57.6705,63.071,46.02,87,100,5.95,RU,2024-04-05 19:24:41
287,ciudad melchor muzquiz,27.8833,-101.5167,84.38,21,68,11.07,MX,2024-04-05 19:20:05
288,popondetta,-8.7537,148.2534,76.03,93,89,2.51,PG,2024-04-05 19:24:41
289,cooper's town,26.8667,-77.5167,70.25,59,0,12.75,BS,2024-04-05 19:24:41
290,bandarbeyla,9.4942,50.8122,81.27,72,4,10.25,SO,2024-04-05 19:24:41
291,ugoofaaru,5.6667,73.0,85.28,75,100,4.63,MV,2024-04-05 19:21:21
292,panaba,21.2833,-88.2667,90.75,30,0,15.03,MX,2024-04-05 19:21:21
293,ialibu,-6.2821,143.9935,59.47,100,100,1.72,PG,2024-04-05 19:24:42
294,siatista,40.2619,21.5442,49.78,51,71,1.77,GR,2024-04-05 19:24:42
295,oulad teima,30.3947,-9.209,88.88,10,4,10.29,MA,2024-04-05 19:24:42
296,kangaba,11.9333,-8.4167,99.52,21,70,2.89,ML,2024-04-05 19:24:42
297,acarau,-2.8856,-40.12,83.3,80,75,8.77,BR,2024-04-05 19:20:25
298,ryotsu-minato,38.0833,138.4333,42.46,68,7,3.36,JP,2024-04-05 19:24:42
299,ondjiva,-17.0667,15.7333,77.04,69,0,3.44,AO,2024-04-05 19:24:42
300,tumayr,25.7039,45.868,77.45,15,0,6.4,SA,2024-04-05 19:24:43
301,paracuru,-3.41,-39.0306,85.1,79,69,7.23,BR,2024-04-05 19:24:43
302,kerikeri,-35.2268,173.9474,53.04,93,4,3.29,NZ,2024-04-05 19:24:43
303,saint-philippe,-21.3585,55.7679,78.39,86,20,3.87,RE,2024-04-05 19:24:43
304,san agustin de valle fertil,-30.6335,-67.4682,82.31,35,47,16.67,AR,2024-04-05 19:24:43
305,ciudad de chiautla de tapia,18.2981,-98.6053,94.19,19,0,4.72,MX,2024-04-05 19:24:43
306,jayapura,-2.5333,140.7,74.59,89,100,1.36,ID,2024-04-05 19:24:43
307,iskateley,67.6803,53.1512,14.02,89,100,14.0,RU,2024-04-05 19:24:44
308,la cruz,23.9167,-106.9,75.9,35,100,7.92,MX,2024-04-05 19:24:44
309,mont-laurier,46.5501,-75.4993,38.82,85,100,10.45,CA,2024-04-05 19:24:44
310,sarkikaraagac,38.0794,31.3664,50.81,52,7,6.15,TR,2024-04-05 19:24:44
311,san patricio,28.017,-97.5169,87.75,29,3,19.04,US,2024-04-05 19:24:44
312,kittila,67.6647,24.8936,19.54,42,0,6.91,FI,2024-04-05 19:24:44
313,youngsville,30.0996,-91.9901,82.94,35,0,8.05,US,2024-04-05 19:24:44
314,cole harbour,44.6724,-63.4751,42.96,85,100,17.27,CA,2024-04-05 19:24:45
315,hirara,24.8,125.2833,73.26,100,100,9.22,JP,2024-04-05 19:24:45
316,balabac,7.9868,117.0645,81.86,77,88,10.74,PH,2024-04-05 19:24:45
317,bisert',56.8617,59.0523,41.67,96,100,7.61,RU,2024-04-05 19:24:45
318,lucapa,-8.4192,20.7447,69.55,94,100,2.71,AO,2024-04-05 19:24:45
319,ekenas,59.9736,23.4339,31.89,96,98,4.79,FI,2024-04-05 19:24:45
320,kinmparana,12.8402,-4.9199,101.84,17,26,2.8,ML,2024-04-05 19:21:17
321,fujieda,34.8667,138.2667,51.69,93,40,0.0,JP,2024-04-05 19:24:45
322,palmer,42.1584,-72.3287,44.47,62,100,14.97,US,2024-04-05 19:24:45
323,ingeniero jacobacci,-41.3427,-69.5448,67.84,23,0,14.14,AR,2024-04-05 19:24:46
324,ancud,-41.8697,-73.8203,56.61,75,47,6.26,CL,2024-04-05 19:24:46
325,tuntum,-5.2581,-44.6489,84.61,85,60,2.1,BR,2024-04-05 19:24:46
326,paramirim,-13.4425,-42.2389,85.44,54,100,4.85,BR,2024-04-05 19:24:46
327,sao tome,0.3365,6.7273,83.41,76,100,4.72,ST,2024-04-05 19:24:46
328,ko pha ngan,9.7578,100.0291,80.19,71,23,9.86,TH,2024-04-05 19:24:46
329,antsiranana,-12.2787,49.2917,79.86,85,29,12.12,MG,2024-04-05 19:24:46
330,quang ngai,15.1167,108.8,71.22,86,5,3.76,VN,2024-04-05 19:24:46
331,berdigestyakh,62.0989,126.6992,-16.06,100,100,3.13,RU,2024-04-05 19:24:47
332,rayevskiy,54.0658,54.9468,45.0,86,100,2.89,RU,2024-04-05 19:24:47
333,fada,9.5667,8.3,78.15,67,82,10.54,NG,2024-04-05 19:24:47
334,urzhar,47.093,81.6294,48.92,43,58,5.53,KZ,2024-04-05 19:24:47
335,novo aripuana,-5.1206,-60.3797,76.48,94,100,3.13,BR,2024-04-05 19:24:47
336,mangrol,21.1167,70.1167,79.41,64,19,11.65,IN,2024-04-05 19:24:47
337,tapiramuta,-11.8472,-40.7914,83.82,50,73,7.52,BR,2024-04-05 19:24:47
338,sandy,40.572,-111.8606,53.55,45,75,24.16,US,2024-04-05 19:24:48
339,trincomalee,8.5711,81.2335,83.01,74,37,8.34,LK,2024-04-05 19:24:48
340,yarmouth,41.7057,-70.2286,47.97,62,100,19.57,US,2024-04-05 19:24:48
341,rongelap,11.1635,166.8941,80.8,76,7,20.4,MH,2024-04-05 19:24:48
342,barabai,-2.5833,115.3833,74.91,97,96,2.19,ID,2024-04-05 19:24:48
343,puerto ayacucho,5.6639,-67.6236,94.15,47,100,4.97,VE,2024-04-05 19:24:48
344,segezha,63.7415,34.3222,19.89,83,100,9.26,RU,2024-04-05 19:24:48
345,thaba-tseka,-29.522,28.6084,53.04,66,0,3.56,LS,2024-04-05 19:20:25
346,tocopilla,-22.092,-70.1979,73.15,71,92,9.53,CL,2024-04-05 19:21:54
347,murzuq,25.9155,13.9184,77.79,8,34,13.0,LY,2024-04-05 19:24:49
348,neiafu,-18.65,-173.9833,77.68,88,100,9.22,TO,2024-04-05 19:24:49
349,luganville,-15.5333,167.1667,80.06,89,87,15.46,VU,2024-04-05 19:24:49
350,illizi,26.4833,8.4667,82.11,10,52,16.98,DZ,2024-04-05 19:24:49
351,mutoko,-17.397,32.2268,72.64,53,100,3.4,ZW,2024-04-05 19:24:50
352,kone,-21.0595,164.8658,74.25,90,94,3.11,NC,2024-04-05 19:24:50
353,phan rang-thap cham,11.5667,108.9833,72.72,92,1,4.36,VN,2024-04-05 19:20:47
354,misratah,32.3754,15.0925,64.87,64,0,10.42,LY,2024-04-05 19:24:50
355,haiku-pauwela,20.9219,-156.3051,76.26,69,20,25.32,US,2024-04-05 19:24:50
356,kaa-khem,51.6833,94.7333,40.41,85,66,3.22,RU,2024-04-05 19:24:50
357,bodaybo,57.8506,114.1933,8.69,92,98,5.1,RU,2024-04-05 19:24:51
358,yuzhno-kurilsk,44.0306,145.8556,33.37,91,100,8.66,RU,2024-04-05 19:24:51
359,castillos,-34.1667,-53.8333,71.17,58,0,7.92,UY,2024-04-05 19:24:51
360,taco pozo,-25.6167,-63.2833,70.52,87,100,6.08,AR,2024-04-05 19:24:51
361,khilok,51.3674,110.4676,28.33,83,100,15.39,RU,2024-04-05 19:24:51
362,camapua,-19.5314,-54.0439,89.33,51,100,2.28,BR,2024-04-05 19:24:51
363,la sarre,48.8002,-79.1996,39.54,80,100,14.05,CA,2024-04-05 19:24:52
364,crossett,33.1282,-91.9612,69.78,36,0,3.24,US,2024-04-05 19:24:52
365,savantvadi,15.9,73.8167,73.47,77,0,1.79,IN,2024-04-05 19:24:52
366,amungan,15.3652,119.9582,80.02,61,68,3.67,PH,2024-04-05 19:24:52
367,albu kamal,34.45,40.9186,75.94,25,100,9.19,SY,2024-04-05 19:24:52
368,kuta,-8.7233,115.1723,82.35,83,40,8.05,ID,2024-04-05 19:21:43
369,kojetin,49.3518,17.3021,62.33,87,100,5.77,CZ,2024-04-05 19:24:52
370,kayangel,8.0823,134.7173,81.7,72,28,19.33,PW,2024-04-05 19:24:17
371,ispir,40.4829,40.9956,47.35,94,100,2.53,TR,2024-04-05 19:24:53
372,kristiansund,63.1115,7.732,35.65,80,40,4.61,NO,2024-04-05 19:24:53
373,mata-utu,-13.2816,-176.1745,83.16,80,100,13.33,WF,2024-04-05 19:24:53
374,at taj,24.2049,23.2857,76.37,15,4,12.41,LY,2024-04-05 19:24:53
375,kapa'a,22.0752,-159.319,75.52,74,75,21.85,US,2024-04-05 19:24:53
376,aral,40.5156,81.2636,53.31,39,40,13.27,CN,2024-04-05 19:24:53
377,pahrump,36.2083,-115.9839,50.95,37,100,15.99,US,2024-04-05 19:20:02
378,natal,-5.795,-35.2094,88.45,70,40,12.66,BR,2024-04-05 19:22:16
379,port augusta,-32.5,137.7667,58.06,69,0,7.65,AU,2024-04-05 19:24:54
380,cidreira,-30.1811,-50.2056,71.19,77,100,10.71,BR,2024-04-05 19:24:54
381,abdulino,53.7,53.6667,41.0,99,100,3.4,RU,2024-04-05 19:24:54
382,save,8.0425,2.486,86.47,62,97,13.09,BJ,2024-04-05 19:24:54
383,karratha,-20.7377,116.8463,79.03,50,45,8.3,AU,2024-04-05 19:24:54
384,labasa,-16.4167,179.3833,76.39,92,87,5.64,FJ,2024-04-05 19:24:54
385,usinsk,65.9939,57.5281,4.06,87,92,11.99,RU,2024-04-05 19:24:55
386,carutapera,-1.195,-46.02,82.33,81,100,9.01,BR,2024-04-05 19:24:55
387,tondano,1.3038,124.9112,69.89,99,100,1.45,ID,2024-04-05 19:24:55
388,juneau,58.3019,-134.4197,37.4,95,100,20.71,US,2024-04-05 19:21:00
389,burang,30.25,81.1667,16.32,95,97,4.83,CN,2024-04-05 19:24:55
390,brusturi,47.2833,26.3833,56.28,70,100,1.48,RO,2024-04-05 19:24:55
391,lancaster,40.2504,-76.2499,46.62,66,100,14.97,US,2024-04-05 19:22:58
392,childress,34.4264,-100.204,84.45,14,0,20.71,US,2024-04-05 19:24:56
393,vernon,50.2581,-119.2691,48.81,58,100,5.01,CA,2024-04-05 19:24:56
394,turpan,42.9333,89.1667,58.89,25,58,4.9,CN,2024-04-05 19:24:56
395,silver springs,29.1044,-82.0206,79.05,47,0,1.99,US,2024-04-05 19:24:56
396,formosa do rio preto,-11.0483,-45.1931,86.25,59,81,5.1,BR,2024-04-05 19:24:56
397,northam,51.0333,-4.2167,53.62,92,100,19.3,GB,2024-04-05 19:24:56
398,bac lieu,9.285,105.7244,81.52,69,9,10.83,VN,2024-04-05 19:24:56
399,mejit,10.2753,170.8646,80.65,76,30,18.43,MH,2024-04-05 19:21:17
400,ketchikan,55.3422,-131.6461,42.78,71,100,7.16,US,2024-04-05 19:24:57
401,nyurba,63.2842,118.3319,-7.22,98,100,5.35,RU,2024-04-05 19:24:57
402,tyukhtet,56.5389,89.3011,35.73,98,39,5.28,RU,2024-04-05 19:24:57
403,aswan,24.0934,32.907,87.08,14,0,8.7,EG,2024-04-05 19:24:57
404,lerwick,60.1545,-1.1494,41.0,69,100,19.91,GB,2024-04-05 19:24:57
405,makurazaki,31.2667,130.3167,60.22,87,100,5.7,JP,2024-04-05 19:24:57
406,la passe,45.5549,-0.8967,70.03,77,99,11.97,FR,2024-04-05 19:24:57
407,chatham,51.3789,0.5279,59.11,60,100,4.0,GB,2024-04-05 19:23:56
408,yaren,-0.5472,166.916,82.33,80,100,14.36,NR,2024-04-05 19:24:58
409,khatra,22.9833,86.85,84.52,39,3,3.74,IN,2024-04-05 19:24:58
410,chubbuck,42.9208,-112.4661,50.83,72,75,18.99,US,2024-04-05 19:24:58
411,chornobayivka,46.6941,32.5537,53.62,63,8,1.7,UA,2024-04-05 19:24:58
412,kruisfontein,-34.0033,24.7314,58.89,75,100,5.12,ZA,2024-04-05 19:24:58
413,camiri,-20.05,-63.5167,85.78,54,100,0.0,BO,2024-04-05 19:24:58
414,sheldon,43.1811,-95.8561,57.18,33,0,13.8,US,2024-04-05 19:24:58
415,urengoy,65.9667,78.3667,34.56,99,100,15.73,RU,2024-04-05 19:24:59
416,chui,-33.6971,-53.4616,71.76,53,0,9.48,UY,2024-04-05 19:24:59
417,santa cruz,-17.8,-63.1667,93.25,49,40,6.91,BO,2024-04-05 19:24:05
418,ambodifotatra,-16.9833,49.85,80.92,83,35,17.0,MG,2024-04-05 19:24:59
419,hauterive,46.0901,3.4459,65.16,64,100,9.69,FR,2024-04-05 19:24:59
420,oktyabr'skoye,43.0645,44.7417,53.69,93,100,6.71,RU,2024-04-05 19:24:59
421,tolanaro,-25.0319,46.9987,77.07,83,20,20.71,MG,2024-04-05 19:24:59
422,zapata,26.9073,-99.2714,87.91,27,0,13.8,US,2024-04-05 19:24:59
423,el calafate,-50.3408,-72.2768,51.08,71,22,7.99,AR,2024-04-05 19:23:38
424,vorkuta,67.5,64.0,-1.32,90,100,17.74,RU,2024-04-05 19:25:00
425,mahibadhoo,3.7833,72.9667,84.74,73,65,6.29,MV,2024-04-05 19:25:00
426,mount isa,-20.7333,139.5,65.97,59,98,11.5,AU,2024-04-05 19:25:00
427,zonguldak,41.25,31.8333,46.92,57,0,3.06,TR,2024-04-05 19:25:00
428,fale old settlement,-9.3852,-171.2468,84.04,73,100,5.44,TK,2024-04-05 19:25:00
429,xiaoweizhai,26.1903,107.5125,54.16,98,100,3.51,CN,2024-04-05 19:25:00
430,dryden,49.7833,-92.7503,44.89,36,0,5.75,CA,2024-04-05 19:21:06
431,awjilah,29.1081,21.2869,77.07,20,9,10.8,LY,2024-04-05 19:25:01
432,lazaro cardenas,17.9583,-102.2,83.32,37,1,10.36,MX,2024-04-05 19:25:01
433,san mariano,7.5,126.0,71.26,93,99,1.72,PH,2024-04-05 19:25:01
434,manaure,11.7751,-72.4445,93.25,49,47,13.49,CO,2024-04-05 19:25:01
435,broken hill,-31.95,141.4333,59.65,83,100,13.85,AU,2024-04-05 19:25:01
436,beloyarskiy,63.7119,66.6722,6.01,85,94,4.0,RU,2024-04-05 19:25:01
437,linxia chengguanzhen,35.6003,103.2064,40.89,80,100,2.08,CN,2024-04-05 19:25:02
438,weno,7.4515,151.8468,82.35,83,100,8.05,FM,2024-04-05 19:25:02
439,ghat,24.9647,10.1728,81.28,8,0,17.76,LY,2024-04-05 19:25:02
440,juan griego,11.0817,-63.9655,87.76,60,7,17.63,VE,2024-04-05 19:25:02
441,lira,2.235,32.9097,71.67,75,94,0.47,UG,2024-04-05 19:25:02
442,gilgit,35.9221,74.3087,42.22,51,13,4.05,PK,2024-04-05 19:25:03
443,puerto maldonado,-12.6,-69.1833,91.8,62,40,5.75,PE,2024-04-05 19:20:49
444,port saint john's,-31.6229,29.5448,66.6,86,100,9.19,ZA,2024-04-05 19:25:03
445,saudarkrokur,65.7461,-19.6394,22.78,72,8,2.21,IS,2024-04-05 19:25:03
446,brak,27.5496,14.2714,77.16,15,87,13.69,LY,2024-04-05 19:25:03
447,tosontsengel,48.7567,98.2839,19.8,99,87,1.81,MN,2024-04-05 19:21:17
448,lompoc,34.6391,-120.4579,54.79,86,100,12.66,US,2024-04-05 19:23:16
449,galle,6.0367,80.217,80.82,83,39,4.18,LK,2024-04-05 19:25:04
450,trevelin,-43.0858,-71.4639,63.88,56,5,5.57,AR,2024-04-05 19:25:04
451,mtimbira,-8.7833,36.35,73.67,97,100,2.3,TZ,2024-04-05 19:25:04
452,puerto aysen,-45.4,-72.7,54.97,94,97,4.74,CL,2024-04-05 19:25:04
453,thunder bay,48.4001,-89.3168,46.31,36,0,6.91,CA,2024-04-05 19:21:48
454,totness,5.8833,-56.3167,86.07,64,41,15.23,SR,2024-04-05 19:25:04
455,kendraparha,20.5,86.4167,81.36,73,0,7.78,IN,2024-04-05 19:25:04
456,aoulef,26.9667,1.0833,87.53,10,0,6.15,DZ,2024-04-05 19:25:05
457,haradok,55.4624,29.9816,40.95,93,100,8.52,BY,2024-04-05 19:25:05
458,pangody,65.85,74.4859,7.05,83,90,19.48,RU,2024-04-05 19:25:05
459,labytnangi,66.6572,66.4183,-0.62,77,5,15.93,RU,2024-04-05 19:25:05
460,wagar,16.1525,36.2032,89.73,41,100,14.52,SD,2024-04-05 19:25:05
461,kashmor,28.4333,69.5833,84.0,16,0,5.23,PK,2024-04-05 19:25:05
462,parkersburg,39.2667,-81.5615,45.34,62,100,11.5,US,2024-04-05 19:25:05
463,hazorasp,41.3194,61.0742,53.44,49,78,9.4,UZ,2024-04-05 19:25:05
464,gibsonville,36.1057,-79.5423,61.18,37,75,16.11,US,2024-04-05 19:25:06
465,rosetta,31.4044,30.4164,63.86,75,0,13.4,EG,2024-04-05 19:25:06
466,argo,37.6333,22.7333,59.79,59,2,2.71,GR,2024-04-05 19:25:06
467,saipan,15.1355,145.701,79.5,78,20,13.8,MP,2024-04-05 19:25:06
468,tralee,52.2704,-9.7026,51.89,92,100,10.92,IE,2024-04-05 19:23:33
469,siwa oasis,29.2041,25.5195,75.31,27,1,16.69,EG,2024-04-05 19:25:06
470,rio segundo,-31.6526,-63.9099,84.0,31,0,11.45,AR,2024-04-05 19:25:06
471,mandla,22.6,80.3833,83.12,25,10,4.68,IN,2024-04-05 19:25:06
472,hastings,50.8552,0.5729,57.97,84,100,15.75,GB,2024-04-05 19:20:49
473,kingaroy,-26.5333,151.8333,64.69,99,100,3.38,AU,2024-04-05 19:25:07
474,ayancik,41.9447,34.5861,52.2,65,0,2.28,TR,2024-04-05 19:25:07
475,port alfred,-33.5906,26.891,62.19,82,100,1.01,ZA,2024-04-05 19:25:07
476,fortuna,40.5982,-124.1573,53.65,73,40,10.36,US,2024-04-05 19:24:18
477,atafu village,-8.5421,-172.5159,83.86,71,94,2.8,TK,2024-04-05 19:25:07
478,xuddur,4.1213,43.8894,83.05,57,94,8.72,SO,2024-04-05 19:25:08
479,gidole,5.65,37.3667,60.1,81,80,2.93,ET,2024-04-05 19:25:08
480,fort wellington,6.4,-57.6,85.73,65,69,10.38,GY,2024-04-05 19:25:08
481,keflavik,64.0049,-22.5624,37.83,65,75,8.05,IS,2024-04-05 19:25:08
482,mezhdurechensk,53.6942,88.0603,34.39,99,100,1.9,RU,2024-04-05 19:25:08
483,extrema,-22.8547,-46.3183,80.26,52,49,4.99,BR,2024-04-05 19:25:09
484,paoua,7.2427,16.4406,77.74,71,100,9.84,CF,2024-04-05 19:25:09
485,zouerate,22.7187,-12.4521,91.85,6,44,7.02,MR,2024-04-05 19:25:09
486,nguigmi,14.2495,13.1092,85.95,15,1,3.02,NE,2024-04-05 19:25:09
487,north bay,46.3168,-79.4663,42.94,93,100,10.36,CA,2024-04-05 19:23:26
488,kingston,17.997,-76.7936,88.75,67,20,19.57,JM,2024-04-05 19:22:45
489,morehead city,34.7229,-76.726,64.08,52,0,18.41,US,2024-04-05 19:25:10
490,sao jose da coroa grande,-8.8978,-35.1478,83.34,72,100,9.55,BR,2024-04-05 19:25:10
491,el nido,11.1858,119.3956,82.44,78,17,11.92,PH,2024-04-05 19:23:20
492,giddings,30.1827,-96.9364,85.01,28,0,10.36,US,2024-04-05 19:21:00
493,reitz,-27.8014,28.4273,59.9,67,10,6.49,ZA,2024-04-05 19:25:10
494,sinjai,-5.1241,120.253,74.61,79,100,5.06,ID,2024-04-05 19:25:10
495,katsuura,35.1333,140.3,54.07,92,100,13.73,JP,2024-04-05 19:25:11
496,panshan,41.1881,122.0494,44.08,64,0,13.58,CN,2024-04-05 19:25:11
497,green,40.9459,-81.4832,41.45,70,75,12.66,US,2024-04-05 19:24:31
498,florence,43.7667,11.25,62.28,82,0,6.91,IT,2024-04-05 19:24:23
499,saint-joseph,-21.3667,55.6167,77.38,87,25,1.32,RE,2024-04-05 19:25:11
500,konstantinovka,49.6167,127.9833,40.19,91,100,11.48,RU,2024-04-05 19:25:12
501,taksimo,56.3444,114.8794,11.77,88,79,3.02,RU,2024-04-05 19:24:30
502,charters towers,-20.1,146.2667,72.95,92,100,6.46,AU,2024-04-05 19:25:12
503,galappo,-4.2667,35.85,66.27,89,100,2.89,TZ,2024-04-05 19:25:12
504,prince rupert,54.3161,-130.3201,44.29,70,100,6.91,CA,2024-04-05 19:25:12
505,ambovombe,-25.1667,46.0833,73.45,86,9,4.12,MG,2024-04-05 19:25:12
506,el granada,37.5027,-122.4694,56.23,60,20,23.02,US,2024-04-05 19:22:38
507,bandon,51.7469,-8.7425,51.39,98,100,20.69,IE,2024-04-05 19:23:21
508,mil'kovo,55.6078,37.7956,34.34,60,8,6.6,RU,2024-04-05 19:25:13
509,xinyuan,37.3,99.0,28.42,72,100,4.41,CN,2024-04-05 19:25:13
510,kuqa,41.7278,82.9364,50.79,46,90,4.92,CN,2024-04-05 19:25:13
511,sao joao da barra,-21.6403,-41.0511,84.29,80,0,11.07,BR,2024-04-05 19:25:13
512,aleksandrovsk-sakhalinskiy,50.8975,142.1561,27.57,77,2,14.41,RU,2024-04-05 19:25:13
513,masterton,-40.9597,175.6575,47.1,71,88,2.3,NZ,2024-04-05 19:20:28
514,tofol,5.3248,163.0078,82.87,76,100,19.39,FM,2024-04-05 19:25:14
515,danilovka,50.3557,44.1168,41.14,85,100,12.84,RU,2024-04-05 19:25:14
516,shushenskoye,53.325,91.9356,50.92,79,93,2.24,RU,2024-04-05 19:25:14
517,lethem,3.3803,-59.7968,95.52,37,77,16.55,GY,2024-04-05 19:25:14
518,ulsteinvik,62.3432,5.8487,37.98,76,94,1.01,NO,2024-04-05 19:25:14
519,waingapu,-9.6567,120.2641,78.71,91,100,9.82,ID,2024-04-05 19:25:14
520,hamina,60.5697,27.1979,29.32,97,100,15.57,FI,2024-04-05 19:25:14
521,ergli,56.8975,25.6367,40.75,87,100,8.79,LV,2024-04-05 19:25:15
522,ust'-uda,54.1742,103.0304,33.04,98,100,3.67,RU,2024-04-05 19:25:15
523,whangarei,-35.7317,174.3239,51.96,96,25,2.55,NZ,2024-04-05 19:25:15
524,rio gallegos,-51.6226,-69.2181,69.85,28,0,24.16,AR,2024-04-05 19:23:40
525,al muharraq,26.2572,50.6119,78.76,43,0,2.3,BH,2024-04-05 19:25:15
526,benguela,-12.5763,13.4055,78.75,80,73,2.91,AO,2024-04-05 19:25:15
527,alpena,45.0617,-83.4327,48.52,48,75,24.16,US,2024-04-05 19:25:15
528,fray luis beltran,-39.3167,-65.7667,78.67,18,0,5.32,AR,2024-04-05 19:25:15
529,mili,6.0815,171.735,81.39,81,78,21.85,MH,2024-04-05 19:25:16
530,brad,46.1333,22.7833,53.2,78,99,1.48,RO,2024-04-05 19:25:16
531,nong chik,6.8436,101.178,76.35,88,26,6.76,TH,2024-04-05 19:25:16
532,camalu,30.85,-116.0667,55.65,51,14,12.77,MX,2024-04-05 19:25:16
533,islamkot,24.6997,70.177,79.61,31,100,15.28,PK,2024-04-05 19:24:16
534,balaklava,44.5,33.6,50.38,59,7,4.27,UA,2024-04-05 19:25:16
535,mana,5.6592,-53.7767,84.79,67,100,10.22,GF,2024-04-05 19:25:16
536,warrnambool,-38.3833,142.4833,56.32,90,84,6.26,AU,2024-04-05 19:25:17
537,sylacauga,33.1732,-86.2516,66.18,34,100,4.61,US,2024-04-05 19:23:34
538,coquimbo,-29.9533,-71.3436,60.53,88,75,13.8,CL,2024-04-05 19:23:15
539,murun-kuren,49.6342,100.1625,34.52,83,13,5.12,MN,2024-04-05 19:25:17
540,jiwani,25.05,61.7417,76.86,71,0,13.73,PK,2024-04-05 19:25:17
541,bechar,31.6167,-2.2167,82.72,11,7,16.11,DZ,2024-04-05 19:24:11
542,at-bashi,41.1702,75.8106,37.89,47,97,5.28,KG,2024-04-05 19:25:17
543,cambria,35.5641,-121.0808,55.56,76,100,7.0,US,2024-04-05 19:22:23
544,andergrove,-21.0833,149.1833,74.64,90,100,11.83,AU,2024-04-05 19:25:18
545,westport,41.1415,-73.3579,49.35,48,75,19.57,US,2024-04-05 19:25:18
546,suntar,62.1444,117.6319,-8.12,94,98,6.11,RU,2024-04-05 19:25:18
547,aripuana,-9.1667,-60.6333,77.52,88,100,1.9,BR,2024-04-05 19:25:18
548,tymovskoye,50.8456,142.655,26.53,89,5,6.78,RU,2024-04-05 19:25:18
549,muisne,0.6,-80.0333,81.88,81,100,8.95,EC,2024-04-05 19:25:18
550,nova olimpia,-14.7972,-57.2881,93.02,50,76,2.68,BR,2024-04-05 19:25:18
551,vanimo,-2.6741,141.3028,78.69,89,100,2.71,PG,2024-04-05 19:25:19
552,cody,44.5263,-109.0565,66.25,27,0,11.01,US,2024-04-05 19:22:10
553,zaozersk,69.4005,32.4476,9.59,90,13,9.46,RU,2024-04-05 19:25:19
554,huancavelica,-12.7667,-74.9833,47.46,67,100,7.61,PE,2024-04-05 19:25:19
555,galliano,29.4422,-90.2992,82.0,47,0,5.75,US,2024-04-05 19:25:19
556,lae,-6.7221,146.9847,73.58,86,100,7.31,PG,2024-04-05 19:25:19
557,minas de marcona,-15.2119,-75.1103,70.81,69,100,18.1,PE,2024-04-05 19:25:20
558,toliara,-23.35,43.6667,78.1,80,32,3.15,MG,2024-04-05 19:25:20
559,gorontalo,0.5412,123.0595,74.26,97,23,2.84,ID,2024-04-05 19:25:20
560,corner brook,48.9667,-57.9484,35.76,76,100,14.29,CA,2024-04-05 19:25:20
561,veinticinco de mayo,-35.4323,-60.1727,83.98,33,0,5.99,AR,2024-04-05 19:25:20
562,brookings,44.3114,-96.7984,57.18,38,0,17.27,US,2024-04-05 19:23:40
563,bolkhov,53.4433,36.0044,34.93,67,10,4.97,RU,2024-04-05 19:25:20
564,mumford,5.2618,-0.759,82.65,82,5,11.39,GH,2024-04-05 19:25:20
565,nizhniy odes,63.6445,54.856,5.02,94,44,5.86,RU,2024-04-05 19:25:21
566,rye,40.9807,-73.6837,50.18,52,75,17.27,US,2024-04-05 19:25:21
567,san antonio oeste,-40.7319,-64.9477,74.28,28,6,10.54,AR,2024-04-05 19:20:26
568,saint-pierre,-21.3393,55.4781,78.48,83,100,2.3,RE,2024-04-05 19:25:21
569,fedorovskiy,45.0972,40.9517,48.92,91,66,9.46,RU,2024-04-05 19:25:21
570,tonneins,44.3921,0.3124,68.22,82,100,11.03,FR,2024-04-05 19:25:21
571,boda,4.3189,17.4695,76.98,77,100,3.94,CF,2024-04-05 19:25:21
572,san felipe,10.3399,-68.7425,92.35,40,100,4.81,VE,2024-04-05 19:25:22
573,chul'man,56.8479,124.9104,9.28,93,100,8.01,RU,2024-04-05 19:25:22
574,revda,56.801,59.9303,43.48,92,100,6.71,RU,2024-04-05 19:25:22
575,acopiara,-6.0953,-39.4525,83.19,81,100,3.78,BR,2024-04-05 19:25:22
576,grand baie,-20.0182,57.5802,76.44,88,2,10.11,MU,2024-04-05 19:25:22
577,huarmey,-10.0681,-78.1522,77.83,76,89,12.26,PE,2024-04-05 19:25:22
578,manakara,-22.1333,48.0167,74.1,87,0,2.73,MG,2024-04-05 19:25:22
579,al bawiti,28.3492,28.8659,70.79,28,31,8.66,EG,2024-04-05 19:25:23
580,barentu,15.1139,37.5928,87.21,26,53,11.79,ER,2024-04-05 19:25:23
581,hudiksvall,61.729,17.1036,28.45,95,100,1.3,SE,2024-04-05 19:25:23
582,enoch,37.7733,-113.0244,44.85,28,0,32.21,US,2024-04-05 19:21:29
583,spring creek,40.7266,-115.5859,37.4,46,100,7.0,US,2024-04-05 19:24:04
584,forster,-32.1667,152.5167,67.37,100,40,5.88,AU,2024-04-05 19:25:23
585,undurkhaan,47.3194,110.6556,37.29,61,99,6.55,MN,2024-04-05 19:25:23
586,puerto lempira,15.2667,-83.7667,89.74,66,40,9.22,HN,2024-04-05 19:25:24
587,vangaindrano,-23.35,47.6,73.09,85,18,3.24,MG,2024-04-05 19:25:24
588,novodvinsk,64.4165,40.8122,6.78,96,17,3.6,RU,2024-04-05 19:25:24
589,ionia,42.9873,-85.0711,49.89,38,75,11.5,US,2024-04-05 19:22:20
